{
	"features": [
		{	
			"type": "Feature",
			"properties": {
				"Name": "Alvin Clay",
				"Office": "Justice of the Peace",
				"State": "AK",
				"Location": "District 6 , Mississippi County"
				},
			"geometry":{
				"type":"Point",
				"coordinates":[-92.9758636883319, 35.4627373999962]
			}
		},
		{
			"type": "Feature",
			"properties": {
				"Name": "Kade Holliday",
				"Office": "County Clerk",
				"State": "AK",
				"Location": "Craighead County"
				},
			"geometry":{
				"type":"Point",
				"coordinates": [-90.63279, 35.830769]
			}
		},
		{
			"type": "Feature",
			"properties": {
				"Name": "Fred Smith",
				"Office": "State Representative",
				"State": "AK",
				"Location": "District 50, County"
				},
			"geometry":{
				"type":"Point",
				"coordinates":[-92.43924, 34.899761]
			}
		},
		{
			"type": "Feature",
			"properties": {
				"Name": "Roger Watkins",
				"Office": "Constable",
				"State": "AK",
				"Location": "District 5 , Craighead County"
				},
			"geometry":{
				"type":"Point",
				"coordinates":[-90.63279, 35.830769]
				}
		},
		{
			"type": "Feature",
			"properties": {
				"Name": "Sylvia Aroth",
				"Office": "Neighborhood Council",
				"State": "CA",
				"Location": "Los Angeles At-Large Community Officers, Venice Neighborhood Council, Los Angeles County"
				},
			"geometry":{
				"type":"Point",
				"coordinates":[-118.245323, 34.05349]
				}
		},
		{
			"type": "Feature",
			"properties": {
				"Name": "Sylvia Arredondo",
				"Office": "Neighborhood Council",
				"State": "CA",
				"Location": "Los Angeles Members-At-Large, Wilmington Neighborhood Council, Los Angeles County"
				},
			"geometry":{
				"type":"Point",
				"coordinates":[-118.245323, 34.05349]
				}
		},
		{
			"type": "Feature",
			"properties": {
				"Name": "Larry Bragman",
				"Office": "City Council",
				"State": "CA",
				"Location": "Fairfax At-Large, Marin County"
				},
			"geometry": {
				"type": "Point",
				"coordinates": [-122.590378, 37.985168]
				}
		},
		{
			"type": "Feature",
			"properties": {
				"Name": "William Bretz",
				"Office": "Crest/Dehesa/Harrison Canyon/Granite Hill Plannning Group",
				"State": "CA",
				"Location": "San Diego County"
				},
			"geometry":{
				"type":"Point",
				"coordinates":[-116.79097, 33.0252]
				}
		},
		{
			"type": "Feature",
			"properties": {
				"Name": "Roo Cantada",
				"Office": "Park and Recreation District",
				"State": "CA",
				"Location": "Oak Tree Community, Nevada County"
				},
			"geometry":{
				"type":"Point",
				"coordinates":[-117.217461, 34.065861]
				}
		},
		{
			"type": "Feature",
			"properties": {
				"Name": "Mathew Clark",
				"Office": "Sanitary District",
				"State": "CA",
				"Location": "Granada, San Mateo County"
				},
			"geometry":{
				"type":"Point",
				"coordinates":[-122.345871, 37.42926]
				}
		},
		{
			"type": "Feature",
			"properties": {
				"Name": "Dave Clark",
				"Office": "Board of Directors",
				"State": "CA",
				"Location": "Cardiff School, San Diego County"
				},
			"geometry":{
				"type":"Point",
				"coordinates":[-117.287727, 33.031979]
				}
		},
		{
			"type": "Feature",
			"properties": {
				"Name": "Wendell Conn",
				"Office": "Neighborhood Council",
				"State": "CA",
				"Location": "Los Angeles Area 2 Representatives, Empowerment Congress West Neighborhood Council, Los Angeles County"
				},
			"geometry":{
				"type":"Point",
				"coordinates":[-118.245323, 34.05349]
				}
		},
		{
			"type": "Feature",
			"properties": {
				"Name": "Nanette Corley",
				"Office": "Director",
				"State": "CA",
				"Location": "Resort Improvement District #1, Humboldt County"
				},
			"geometry":{
				"type":"Point",
				"coordinates":[-123.914612, 40.704121]
				}
		},
		{
			"type": "Feature",
			"properties": {
				"Name": "Jeff Davis",
				"Office": "Board of Directors",
				"State": "CA",
				"Location": "Alameda-Contra Costa Transit District , County"
				},
			"geometry":{
				"type":"Point",
				"coordinates":[-122.2453, 37.76683]
				}
		},
		{
			"type": "Feature",
			"properties": {
				"Name": "Bruce Delgado",
				"Office": "Mayor",
				"State": "CA",
				"Location": "Marina City , Monterey County"
				},
			"geometry":{
				"type":"Point",
				"coordinates":[-121.802307, 36.681622]
				}
		},
		{
			"type": "Feature",
			"properties": {
				"Name": "Robert Deutsch, M.D. ",
				"Office": "Healthcare District",
				"State": "CA",
				"Location": "City of Alameda, Alameda County"
				},
			"geometry":{
				"type":"Point",
				"coordinates":[-121.909935, 37.331829]
				}
		},
		{
			"type": "Feature",
			"properties": {
				"Name": "Phyllis Greenleaf",
				"Office": "Board of Education Trustee",
				"State": "CA",
				"Location": "Live Oak Elementary School District, Santa Cruz County"
				},
			"geometry":{
				"type":"Point",
				"coordinates":[-120.95356, 37.67178]
				}
		},
		{
			"type": "Feature",
			"properties": {
				"Name": "Herb Gura",
				"Office": "School Board",
				"State": "CA",
				"Location": "Konocti Unified, Lake County"
				},
			"geometry":{
				"type":"Point",
				"coordinates":[-122.765999, 38.974899]
				}
		},
		{
			"type": "Feature",
			"properties": {
				"Name": "Dan Hamburg",
				"Office": "Board of Supervisors",
				"State": "CA",
				"Location": "District 5, Mendocino County"
				},
			"geometry":{
				"type":"Point",
				"coordinates":[-123.79892, 39.307621]
				}
		},
		{
			"type": "Feature",
			"properties": {
				"Name": "Cliff Hanna",
				"Office": "Member",
				"State": "CA",
				"Location": "Torrey Pines Community Area 3, Torrey Pines Community Planning Board, San Diego County"
				},
			"geometry":{
				"type":"Point",
				"coordinates":[-117.242874, 32.90197]
				}
		},
		{
			"type": "Feature",
			"properties": {
				"Name": "Pam Hartwell-Herrero",
				"Office": "Town Council",
				"State": "CA",
				"Location": "Fairfax , Marin County"
				},
			"geometry":{
				"type":"Point",
				"coordinates":[-122.590378, 37.985168]
				}
		},
		{
			"type": "Feature",
			"properties": {
				"Name": "Jim Harvey",
				"Office": "Montara Water and Sanitary District",
				"State": "CA",
				"Location": "Montara, San Mateo County"
				},
			"geometry":{
				"type":"Point",
				"coordinates":[-122.515022, 37.54232]
				}
		},
		{
			"type": "Feature",
			"properties": {
				"Name": "William Hayes",
				"Office": "Park and Recreation District",
				"State": "CA",
				"Location": "Mendocino Coast, Mendocino County"
				},
			"geometry":{
				"type":"Point",
				"coordinates":[-123.79892, 39.307621]
				}
		},
		{
			"type": "Feature",
			"properties": {
				"Name": "Patricia Hiles",
				"Office": "School Board",
				"State": "CA",
				"Location": "Hope School District, Santa Barbara County"
				},
			"geometry":{
				"type":"Point",
				"coordinates":[-119.752762, 34.44783]
				}
		},
		{
			"type": "Feature",
			"properties": {
				"Name": "Jack Lindblad",
				"Office": "Neighborhood Council",
				"State": "CA",
				"Location": "Los Angeles Arleta At-Large, Los Angeles County"
				},
			"geometry":{
				"type":"Point",
				"coordinates":[-118.245323, 34.05349]
				}
		},
		{
			"type": "Feature",
			"properties": {
				"Name": "Crispin Littlehales",
				"Office": "Board Member",
				"State": "CA",
				"Location": "Covelo Community Services District, Mendocino County"
				},
			"geometry":{
				"type":"Point",
				"coordinates":[-123.248169, 39.79311]
				}
		},
		{
			"type": "Feature",
			"properties": {
				"Name": "Gregory Luke",
				"Office": "Neighborhood Council",
				"State": "CA",
				"Location": "Los Angeles Business Director, Eagle Rock Neighborhood Council, Los Angeles County"
				},
			"geometry":{
				"type":"Point",
				"coordinates":[-118.20752, 34.136639]
				}
		},
		{
			"type": "Feature",
			"properties": {
				"Name": "Randy Marx",
				"Office": "Director",
				"State": "CA",
				"Location": "Fair Oaks Water District, Division 4, Sacramento County"
				},
			"geometry":{
				"type":"Point",
				"coordinates":[-121.270157, 38.64307]
				}
		},
		{
			"type": "Feature",
			"properties": {
				"Name": "Gayle McLaughlin",
				"Office": "Mayor",
				"State": "CA",
				"Location": "Richmond, Contra Costa County"
				},
			"geometry":{
				"type":"Point",
				"coordinates":[-122.342712, 37.937809]
				}
		},
		{
			"type": "Feature",
			"properties": {
				"Name": "Ryan O'Neil",
				"Office": "City Council",
				"State": "CA",
				"Location": "Fairfax At-Large, Marin County"
				},
			"geometry":{
				"type":"Point",
				"coordinates":[-122.590378, 37.985168]
				}
		},
		{
			"type": "Feature",
			"properties": {
				"Name": "Vahe Peroomian",
				"Office": "Board of Trustees",
				"State": "CA",
				"Location": "Glendale Glendale Community College District , Los Angeles County"
				},
			"geometry":{
				"type":"Point",
				"coordinates":[-118.24836, 34.146332]
				}
		},
		{
			"type": "Feature",
			"properties": {
				"Name": "Kimberly Ann Peterson",
				"Office": "Trustee, Board of Education",
				"State": "CA",
				"Location": "Geyserville Unified School District, Sonoma County"
				},
			"geometry":{
				"type":"Point",
				"coordinates":[-122.904083, 38.706451]
				}
		},
		{
			"type": "Feature",
			"properties": {
				"Name": "Karen Pickett",
				"Office": "Board Member",
				"State": "CA",
				"Location": "Canyon Canyon Elementary School District, Contra Costa County"
				},
			"geometry":{
				"type":"Point",
				"coordinates":[-122.165359, 37.829109]
				}
		},
		{
			"type": "Feature",
			"properties": {
				"Name": "John Abraham Powell",
				"Office": "Fire District",
				"State": "CA",
				"Location": "Montecito, Santa Barbara County"
				},
			"geometry":{
				"type":"Point",
				"coordinates":[-119.648483, 34.421478]
				}
		},
		{
			"type": "Feature",
			"properties": {
				"Name": "Andrew Ptashnik",
				"Office": "Neighborhood Council",
				"State": "CA",
				"Location": "Los Angeles Mount Washington Representatives, Arroyo Seco Neighborhood Council, Los Angeles County"
				},
			"geometry":{
				"type":"Point",
				"coordinates":[-118.225998, 34.078899]
				}
		},
		{
			"type": "Feature",
			"properties": {
				"Name": "John Reed",
				"Office": "City Council",
				"State": "CA",
				"Location": "Fairfax At-Large, Marin County"
				},
			"geometry":{
				"type":"Point",
				"coordinates":[-122.590378, 37.985168]
				}
		},
		{
			"type": "Feature",
			"properties": {
				"Name": "Curtis Robinson",
				"Office": "Board of Education Trustee",
				"State": "CA",
				"Location": "Area 6, Marin County"
				},
			"geometry":{
				"type":"Point",
				"coordinates":[-122.512222, 37.87347]
				}
		},
		{
			"type": "Feature",
			"properties": {
				"Name": "Julio Santizo",
				"Office": "Neighborhood Council",
				"State": "CA",
				"Location": "Los Angeles Residents Tenants Representatives, Rampart Village Neighborhood Council, Los Angeles County"
				},
			"geometry":{
				"type":"Point",
				"coordinates":[-118.2789, 34.074268]
				}
		},
		{
			"type": "Feature",
			"properties": {
				"Name": "Jeffrey Schwartz",
				"Office": "School Board",
				"State": "CA",
				"Location": "Arcata , Humboldt County"
				},
			"geometry":{
				"type":"Point",
				"coordinates":[-124.085152, 40.867432]
				}
		},
		{
			"type": "Feature",
			"properties": {
				"Name": "Jan Shriner",
				"Office": "Water District",
				"State": "CA",
				"Location": "",
				"Latitude": "Monterey County"
				},
			"geometry":{
				"type":"Point",
				"coordinates":[-121.896767, 36.597591]
				}
		},
		{
			"type": "Feature",
			"properties": {
				"Name": "Dana Silvernale",
				"Office": "School Board",
				"State": "CA",
				"Location": "Northern Humboldt Union High School District, Humboldt County"
				},
			"geometry":{
				"type":"Point",
				"coordinates":[-124.110416, 40.954802]
				}
		},
		{
			"type": "Feature",
			"properties": {
				"Name": "Jim Smith",
				"Office": "President, Canyon School Board",
				"State": "CA",
				"Location": "Canyon Township, Contra Costa County"
				},
			"geometry":{
				"type":"Point",
				"coordinates":[-122.165359, 37.829109]
				}
		},
		{
			"type": "Feature",
			"properties": {
				"Name": "Kaitlin Sopoci-Belknap",
				"Office": "Humboldt Bay Municipal Water District",
				"State": "CA",
				"Location": "Division 1, Humboldt County"
				},
			"geometry":{
				"type":"Point",
				"coordinates":[-124.159554, 40.803249]
				}
		},
		{
			"type": "Feature",
			"properties": {
				"Name": "Lisa Stephens",
				"Office": "Rent Stabilization Board",
				"State": "CA",
				"Location": "Berkeley, Alameda County"
				},
			"geometry":{
				"type":"Point",
				"coordinates":[-122.270538, 37.869881]
				}
		},
		{
			"type": "Feature",
			"properties": {
				"Name": "Jesse Townley",
				"Office": "Rent Stabilization Board",
				"State": "CA",
				"Location": "Berkeley Berkeley, Alameda County"
				},
			"geometry":{
				"type":"Point",
				"coordinates":[-122.270538, 37.869881]
				}
		},
		{
			"type": "Feature",
			"properties": {
				"Name": "Lew Tremaine",
				"Office": "City Council",
				"State": "CA",
				"Location": "Fairfax At-Large, Marin County"
				},
			"geometry":{
				"type":"Point",
				"coordinates":[-122.590378, 37.985168]
				}
		},
		{
			"type": "Feature",
			"properties": {
				"Name": "Pam Webster",
				"Office": "Rent Stabilization Board",
				"State": "CA",
				"Location": "Berkeley, Alameda County"
				},
			"geometry":{
				"type":"Point",
				"coordinates":[-122.590378, 37.985168]
				}
		},
		{
			"type": "Feature",
			"properties": {
				"Name": "Claudia White",
				"Office": "Member",
				"State": "CA",
				"Location": "Descanso Descanso Community Planning Group, San Diego County"
				},
			"geometry":{
				"type":"Point",
				"coordinates":[-116.615501, 32.852379]
				}
		},
		{
			"type": "Feature",
			"properties": {
				"Name": "Art Goodtimes",
				"Office": "Board of Commissioners",
				"State": "CO",
				"Location": "San Miguel County"
				},
			"geometry":{
				"type":"Point",
				"coordinates":[-108.284973, 38.13155]
				}
		},
		{
			"type": "Feature",
			"properties": {
				"Name": "Charlie Green",
				"Office": "School Board",
				"State": "CO",
				"Location": "District e, Fremont RE-3, Fremont County"
				},
			"geometry":{
				"type":"Point",
				"coordinates":[-105.238136, 38.440639]
				}
		},
		{
			"type": "Feature",
			"properties": {
				"Name": "Tanya Ishikawa",
				"Office": "City Council",
				"State": "CO",
				"Location": "Federal Heights Ward 1, Adams County"
				},
			"geometry":{
				"type":"Point",
				"coordinates":[-104.897537, 39.805679]
				}
		},
		{
			"type": "Feature",
			"properties": {
				"Name": "Daphne Dixon",
				"Office": "Zoning Board of Appeals Alternate",
				"State": "CT",
				"Location": "Fairfield , Fairfield County"
				},
			"geometry":{
				"type":"Point",
				"coordinates":[-73.229622, 41.16581]
				}
		},
		{
			"type": "Feature",
			"properties": {
				"Name": "Leif Smith",
				"Office": "Constable",
				"State": "CT",
				"Location": "Redding , Fairfield County"
				},
			"geometry":{
				"type":"Point",
				"coordinates":[-73.382652, 41.304359]
				}
		},
		{
			"type": "Feature",
			"properties": {
				"Name": "Renee Bowser",
				"Office": "Advisory Neighborhood Commission",
				"State": "DC",
				"Location": "Washington SMD 4D02"
				},
			"geometry":{
				"type":"Point",
				"coordinates":[-77.03196, 38.890369]
				}
		},
		{
			"type": "Feature",
			"properties": {
				"Name": "Joyce Robinson-Paul",
				"Office": "Advisory Neighborhood Commission",
				"State": "DC",
				"Location": "Washington SMD 5E05"
				},
			"geometry":{
				"type":"Point",
				"coordinates":[-77.03196, 38.890369]
				}
		},
		{
			"type": "Feature",
			"properties": {
				"Name": "Carolyn Steptoe",
				"Office": "Advisory Neighborhood Commission",
				"State": "DC",
				"Location": "Washington 5B04"
				},
			"geometry":{
				"type":"Point",
				"coordinates":[-77.03196, 38.890369]
				}
		},
		{
			"type": "Feature",
			"properties": {
				"Name": "Anita Stewart",
				"Office": "Soil & Water Conservation District",
				"State": "FL",
				"Location": "District 5, Hillsborough County"
				},
			"geometry":{
				"type":"Point",
				"coordinates":[-82.37825, 28.072611]
				}
		},
		{
			"type": "Feature",
			"properties": {
				"Name": "Steve Alesch",
				"Office": "Park and Recreation District",
				"State": "IL",
				"Location": "Warrenville, DuPage County"
				},
			"geometry":{
				"type":"Point",
				"coordinates":[-88.183189, 41.823158]
				}
		},
		{
			"type": "Feature",
			"properties": {
				"Name": "Robert Braam",
				"Office": "Library Board Trustee",
				"State": "IL",
				"Location": "Manhattan Public Library, Will County"
				},
			"geometry":{
				"type":"Point",
				"coordinates":[-87.986168, 41.422771]
				}
		},
		{
			"type": "Feature",
			"properties": {
				"Name": "Don Crawford",
				"Office": "Library Board",
				"State": "IL",
				"Location": "St. Elmo , Fayette County"
				},
			"geometry":{
				"type":"Point",
				"coordinates":[-88.852562, 39.028809]
				}
		},
		{
			"type": "Feature",
			"properties": {
				"Name": "Val Densmore",
				"Office": "School Board Trustee",
				"State": "IL",
				"Location": "Country Club Hills, SD #160, Cook County"
				},
			"geometry":{
				"type":"Point",
				"coordinates":[-87.719292, 41.557129]
				}
		},
		{
			"type": "Feature",
			"properties": {
				"Name": "Michael Drennan",
				"Office": "Park Board",
				"State": "IL",
				"Location": "Ridgeville, Cook County"
				},
			"geometry":{
				"type":"Point",
				"coordinates":[-88.067001, 40.713661]
				}
		},
		{
			"type": "Feature",
			"properties": {
				"Name": "Jon Murray",
				"Office": "Village Trustee",
				"State": "IL",
				"Location": "Mount Morris, Ogle County"
				},
			"geometry":{
				"type":"Point",
				"coordinates":[-89.432732, 42.049541]
				}
		},
		{
			"type": "Feature",
			"properties": {
				"Name": "Bruce Samuels",
				"Office": "Library Board",
				"State": "IL",
				"Location": "Oak Park Village, Cook County"
				},
			"geometry":{
				"type":"Point",
				"coordinates":[-87.778908, 41.880001]
				}
		},
		{
			"type": "Feature",
			"properties": {
				"Name": "Peter Schwartzman",
				"Office": "City Council",
				"State": "IL",
				"Location": "Galesburg Ward 5, Knox County"
				},
			"geometry":{
				"type":"Point",
				"coordinates":[-90.364662, 40.946911]
				}
		},
		{
			"type": "Feature",
			"properties": {
				"Name": "Toni Williams",
				"Office": "School Board",
				"State": "IL",
				"Location": "Thornton Township HS District 205, Cook County"
				},
			"geometry":{
				"type":"Point",
				"coordinates":[87.611671, 41.568401]
				}
		},
		{
			"type": "Feature",
			"properties": {
				"Name": "Raymond Meyer",
				"Office": "Board of Trustees",
				"State": "IA",
				"Location": "Lucas County Health Center, Lucas County"
				},
			"geometry":{
				"type":"Point",
				"coordinates":[-93.327698, 41.029331]
				}
		},
		{
			"type": "Feature",
			"properties": {
				"Name": "Raymond Meyer",
				"Office": "City Council",
				"State": "IA",
				"Location": "Chariton At-Large, Lucas County"
				},
			"geometry":{
				"type":"Point",
				"coordinates":[-93.303459, 41.013859]
				}
		},
		{
			"type": "Feature",
			"properties": {
				"Name": "John Anton",
				"Office": "City Council",
				"State": "ME",
				"Location": "At-Large, Portland, Cumberland County"
				},
			"geometry":{
				"type":"Point",
				"coordinates":[-70.256653, 43.659142]
				}
		},
		{
			"type": "Feature",
			"properties": {
				"Name": "Antonio Blasi",
				"Office": "Planning Board",
				"State": "ME",
				"Location": "Town of Hancock , Hancock County"
				},
			"geometry":{
				"type":"Point",
				"coordinates":[-68.227592, 44.468521]
				}
		},
		{
			"type": "Feature",
			"properties": {
				"Name": "Ben Chipman",
				"Office": "Charter Commission",
				"State": "ME",
				"Location": "Portland District 1, Cumberland County"
				},
			"geometry":{
				"type":"Point",
				"coordinates":[-70.256653, 43.659142]
				}
		},
		{
			"type": "Feature",
			"properties": {
				"Name": "Kevin Donoghue",
				"Office": "City Council",
				"State": "ME",
				"Location": "Portland District 1, Cumberland County"
			},
			"geometry":{
				"type":"Point",
				"coordinates":[-70.256653, 43.659142]
				}
		},
		{
			"type": "Feature",
			"properties": {
				"Name": "John Eder",
				"Office": "Charter Commission Member",
				"State": "ME",
				"Location": "District 1, Cumberland County"
				},
			"geometry":{
				"type":"Point",
				"coordinates":[-70.256653, 43.659142]
				}
		},
		{
			"type": "Feature",
			"properties": {
				"Name": "David Marshall",
				"Office": "City Council",
				"State": "ME",
				"Location": "Portland District 2, Cumberland County"
				},
			"geometry":{
				"type":"Point",
				"coordinates":[-70.256653, 43.659142]
				}
		},
		{
			"type": "Feature",
			"properties": {
				"Name": "Jane Meisenbach",
				"Office": "School Board",
				"State": "ME",
				"Location": "MSAD 75, Cumberland County"
				},
			"geometry":{
				"type":"Point",
				"coordinates":[-70.256653, 43.659142]
				}
		},
		{
			"type": "Feature",
			"properties": {
				"Name": "Holly Seeliger",
				"Office": "School Board",
				"State": "ME",
				"Location": "Portland District 2, Cumberland County"
				},
			"geometry":{
				"type":"Point",
				"coordinates":[-70.256653, 43.659142]
				}
		},
		{
			"type": "Feature",
			"properties": {
				"Name": "Anna Trevorrow",
				"Office": "Charter Commission",
				"State": "ME",
				"Location": "Portland At-Large, Cumberland County"
				},
			"geometry":{
				"type":"Point",
				"coordinates":[-70.256653, 43.659142]
				}
		},
		{
			"type": "Feature",
			"properties": {
				"Name": "Michael Cornell",
				"Office": "Town Council",
				"State": "MD",
				"Location": "Columbia Association, Village of River Hill , Howard County"
			},
			"geometry":{
				"type":"Point",
				"coordinates":[-76.918892, 39.209721]
				}
		},
		{
			"type": "Feature",
			"properties": {
				"Name": "James Wilkinson",
				"Office": "Town Council",
				"State": "MD",
				"Location": "Berwyn Heights, Prince George's County"
			},
			"geometry":{
				"type":"Point",
				"coordinates":[-76.92704, 38.99493]
				}
		},
		{
			"type": "Feature",
			"properties": {
				"Name": "Nat Fortune",
				"Office": "School Committee",
				"State": "MA",
				"Location": "Whately Elementary, Whately County"
				},
			"geometry":{
				"type":"Point",
				"coordinates":[-72.634781, 42.439178]
				}
		},
		{
			"type": "Feature",
			"properties": {
				"Name": "Frank Gatti",
				"Office": "Town Meeting Member",
				"State": "MA",
				"Location": "Amherst Precinct 8, Hampshire County"
				},
			"geometry":{
				"type":"Point",
				"coordinates":[-72.533203, 42.37077]
				}
		},
		{
			"type": "Feature",
			"properties": {
				"Name": "Rudy Heller",
				"Office": "Selectman",
				"State": "MA",
				"Location": "Brookfield , Worcester County"
			},
			"geometry":{
				"type":"Point",
				"coordinates":[-72.101402, 42.216412]
				}
		},
		{
			"type": "Feature",
			"properties": {
				"Name": "Eleanor Manire-Gatti",
				"Office": "Town Meeting Member",
				"State": "MA",
				"Location": "Amherst Precinct 8, Hampshire County"
				},
			"geometry":{
				"type":"Point",
				"coordinates":[-72.533203, 42.37077]
				}
		},
		{
			"type": "Feature",
			"properties": {
				"Name": "M.K. Merelice",
				"Office": "Town Meeting Member",
				"State": "MA",
				"Location": "Brookline Precinct 6, Norfolk County"
			},
			"geometry":{
				"type":"Point",
				"coordinates":[-71.120468, 42.333469]
				}
		},
		{
			"type": "Feature",
			"properties": {
				"Name": "Vincent O'Connor",
				"Office": "Town Meeting Member",
				"State": "MA",
				"Location": "Amherst Precinct 1, Hampshire County"
			},
			"geometry":{
				"type":"Point",
				"coordinates":[-72.533203, 42.37077]
				}
		},
		{
			"type": "Feature",
			"properties": {
				"Name": "Joyce Palmer-Fortune",
				"Office": "Selectboard",
				"State": "MA",
				"Location": "Whately , Franklin County"
				},
			"geometry":{
				"type":"Point",
				"coordinates":[-72.634781, 42.439178]
				}
		},
		{
			"type": "Feature",
			"properties": {
				"Name": "Adam Sacks",
				"Office": "Town Meeting Member",
				"State": "MA",
				"Location": "Lexington Precinct 2, Middlesex County"
				},
			"geometry":{
				"type":"Point",
				"coordinates":[-71.22374, 42.44632]
				}
		},
		{
			"type": "Feature",
			"properties": {
				"Name": "David Spanagel",
				"Office": "Town Moderator",
				"State": "MA",
				"Location": "Lancaster, Worcester County"
				},
			"geometry":{
				"type":"Point",
				"coordinates":[-71.673683, 42.456631]
				}
		},
		{
			"type": "Feature",
			"properties": {
				"Name": "Korine Bachleda",
				"Office": "Township Clerk",
				"State": "MI",
				"Location": "Newberg Township, Cass County"
				},
			"geometry":{
				"type":"Point",
				"coordinates":[-85.803711, 41.904499]
				}
		},
		{
			"type": "Feature",
			"properties": {
				"Name": "Cam Gordon",
				"Office": "City Council",
				"State": "MN",
				"Location": "Minneapolis Ward 2, Hennepin County"
			},
			"geometry":{
				"type":"Point",
				"coordinates":[-93.264931, 44.979031]
				}
		},
		{
			"type": "Feature",
			"properties": {
				"Name": "Laura Libby",
				"Office": "City Council",
				"State": "MN",
				"Location": "Crystal Crystal Section 1, Hennepin County"
			},
			"geometry":{
				"type":"Point",
				"coordinates":[-93.3601, 45.03183]
				}
		},
		{
			"type": "Feature",
			"properties": {
				"Name": "John Matheson",
				"Office": "City Council",
				"State": "MN",
				"Location": "Hilltop Hilltop At-Large, Anoka County"
			},
			"geometry":{
				"type":"Point",
				"coordinates":[-93.249977, 45.051868]
				}
		},
		{
			"type": "Feature",
			"properties": {
				"Name": "Annie Young",
				"Office": "Parks & Recreation Board",
				"State": "MN",
				"Location": "Minneapolis At-Large, Hennepin County"
			},
			"geometry":{
				"type":"Point",
				"coordinates":[-93.264931, 44.979031]
				}
		},
		{
			"type": "Feature",
			"properties": {
				"Name": "Steve Larrick",
				"Office": "Natural Resources District",
				"State": "NE",
				"Location": "Lower Platte 5, Lancaster County"
			},
			"geometry":{
				"type":"Point",
				"coordinates":[-100.763329, 41.136318]
				}
		},
		{
			"type": "Feature",
			"properties": {
				"Name": "Gary Novosielski",
				"Office": "School Board",
				"State": "NJ",
				"Location": "Rutherford, Bergen County"
			},
			"geometry":{
				"type":"Point",
				"coordinates":[-74.108742, 40.825588]
				}
		},
		{
			"type": "Feature",
			"properties": {
				"Name": "David Doonan",
				"Office": "Mayor",
				"State": "NY",
				"Location": "Village of Greenwich, Washington County"
			},
			"geometry":{
				"type":"Point",
				"coordinates":[-73.496353, 43.087421]
				}
		},
		{
			"type": "Feature",
			"properties": {
				"Name": "Jennifer Dotson",
				"Office": "Common Council",
				"State": "NY",
				"Location": "Ithaca Ward One, Tompkins County"
			},
			"geometry":{
				"type":"Point",
				"coordinates":[-76.503029, 42.407631]
				}
		},
		{
			"type": "Feature",
			"properties": {
				"Name": "Brian Kehoe",
				"Office": "Trustee",
				"State": "NY",
				"Location": "Village of Catskill , Greene County"
			},
			"geometry":{
				"type":"Point",
				"coordinates":[-73.933533, 42.220188]
				}
		},
		{
			"type": "Feature",
			"properties": {
				"Name": "Mary Jo Long",
				"Office": "Town Council",
				"State": "NY",
				"Location": "Afton , Chenango County"
				},
			"geometry":{
				"type":"Point",
				"coordinates":[-75.496849, 42.239899]
				}
		},
		{
			"type": "Feature",
			"properties": {
				"Name": "Edgar Rodriguez",
				"Office": "Board of Education",
				"State": "NY",
				"Location": "New Paltz Central School District, Ulster County"
				},
			"geometry":{
				"type":"Point",
				"coordinates":[-74.104019, 41.746449]
				}
		},
		{
			"type": "Feature",
			"properties": {
				"Name": "Jim Sullivan",
				"Office": "Mayor",
				"State": "NY",
				"Location": "Village of Victory , Saratoga County"
			},
			"geometry":{
				"type":"Point",
				"coordinates":[-73.58815, 43.094059]
				}
		},
		{
			"type": "Feature",
			"properties": {
				"Name": "Jason West",
				"Office": "Mayor",
				"State": "NY",
				"Location": "New Paltz , Ulster County"
				},
			"geometry":{
				"type":"Point",
				"coordinates":[-74.104019, 41.746449]
				}
		},
		{
			"type": "Feature",
			"properties": {
				"Name": "Brian Cummins",
				"Office": "City Council",
				"State": "OH",
				"Location": "Cleveland Ward 14, Cuyahoga County"
			},
			"geometry":{
				"type":"Point",
				"coordinates":[-81.69072, 41.504749]
				}
		},
		{
			"type": "Feature",
			"properties": {
				"Name": "Dennis Spisak",
				"Office": "Board of Education",
				"State": "OH",
				"Location": "Struthers At-Large, Mahoning County"
				},
			"geometry":{
				"type":"Point",
				"coordinates":[-80.591782, 41.054089]
				}
		},
		{
			"type": "Feature",
			"properties": {
				"Name": "Edward Shadid",
				"Office": "City Council",
				"State": "OK",
				"Location": "Oklahoma City , Oklahoma County"
				},
			"geometry":{
				"type":"Point",
				"coordinates":[-97.521072, 35.472031]
				}
		},
		{
			"type": "Feature",
			"properties": {
				"Name": "Michael Beilstein",
				"Office": "City Council",
				"State": "OR",
				"Location": "Corvallis Ward 5, Benton County"
				},
			"geometry":{
				"type":"Point",
				"coordinates":[-123.263527, 44.565041]
				}
		},
		{
			"type": "Feature",
			"properties": {
				"Name": "Chandler Cruise",
				"Office": "Mayor",
				"State": "OR",
				"Location": "Antelope , Wasco County"
				},
			"geometry":{
				"type":"Point",
				"coordinates":[-120.722099, 44.90976]
				}
		},
		{
			"type": "Feature",
			"properties": {
				"Name": "Matt Donohue",
				"Office": "School Board",
				"State": "OR",
				"Location": "Corvallis Position 4, Benton County"
				},
			"geometry":{
				"type":"Point",
				"coordinates":[-123.263527, 44.565041]
				}
		},
		{
			"type": "Feature",
			"properties": {
				"Name": "Richard Hervey",
				"Office": "City Council",
				"State": "OR",
				"Location": "Corvallis Ward 3, Benton County"
				},
			"geometry":{
				"type":"Point",
				"coordinates":[-123.263527, 44.565041]
				}
		},
		{
			"type": "Feature",
			"properties": {
				"Name": "John Jones",
				"Office": "Board Member",
				"State": "OR",
				"Location": "Myrtle Point Health District, Coos County"
				},
			"geometry":{
				"type":"Point",
				"coordinates":[-124.13903, 43.064362]
				}
		},
		{
			"type": "Feature",
			"properties": {
				"Name": "Michael Weinberg",
				"Office": "Soil and Water Conservation District",
				"State": "OR",
				"Location": "Clackamas At-Large Director, Clackamas County"
				},
			"geometry":{
				"type":"Point",
				"coordinates":[-122.569092, 45.412109]
				}
		},
		{
			"type": "Feature",
			"properties": {
				"Name": "Charles Michael Farley",
				"Office": "Minority Inspector of Elections",
				"State": "PA",
				"Location": "Hanover Borough Ward 4, York County"
				},
			"geometry":{
				"type":"Point",
				"coordinates":[-76.982857, 39.800739]
				}
		},
		{
			"type": "Feature",
			"properties": {
				"Name": "Randi Peters",
				"Office": "Auditor",
				"State": "PA",
				"Location": "Maidencreek Township, Berks County"
				},
			"geometry":{
				"type":"Point",
				"coordinates":[-75.934273, 40.435547]
				}
		},
		{
			"type": "Feature",
			"properties": {
				"Name": "Rob Piemme",
				"Office": "Inspector of Elections",
				"State": "PA",
				"Location": "Aspinwall , Allegheny County"
				},
			"geometry":{
				"type":"Point",
				"coordinates":[-79.90432, 40.490162]
				}
		},
		{
			"type": "Feature",
			"properties": {
				"Name": "Bill Smedley",
				"Office": "Constable",
				"State": "PA",
				"Location": "Nippenose Township, Lycoming County"
				},
			"geometry":{
				"type":"Point",
				"coordinates":[-77.230652, 41.189869]
				}
		},
		{
			"type": "Feature",
			"properties": {
				"Name": "Jay Sweeney",
				"Office": "Auditor",
				"State": "PA",
				"Location": "Falls Township, Wyoming County"
				},
			"geometry":{
				"type":"Point",
				"coordinates":[-75.856918, 41.485451]
				}
		},
		{
			"type": "Feature",
			"properties": {
				"Name": "Stephen Weisser",
				"Office": "Inspector of Elections",
				"State": "PA",
				"Location": "York City 7, York County"
				},
			"geometry":{
				"type":"Point",
				"coordinates":[-76.724289, 39.964531]
				}
		},
		{
			"type": "Feature",
			"properties": {
				"Name": "Eugene Platt",
				"Office": "Public Service District",
				"State": "SC",
				"Location": "James Island , Charleston County"
				},
			"geometry":{
				"type":"Point",
				"coordinates":[-79.97467, 32.76247]
				}
		},
		{
			"type": "Feature",
			"properties": {
				"Name": "Enrique Valdivia",
				"Office": "Water Board",
				"State": "TX",
				"Location": "Edwards Aquifer Authority District 7, Bexar County"
				},
			"geometry":{
				"type":"Point",
				"coordinates":[-98.519913, 29.449039]
				}
		},
		{
			"type": "Feature",
			"properties": {
				"Name": "Ira Richards",
				"Office": "Soil and Water Conservation Board",
				"State": "VA",
				"Location": "Lord Fairfax District, Warren County"
				},
			"geometry":{
				"type":"Point",
				"coordinates":[-77.308128, 38.841572]
				}
		},
		{
			"type": "Feature",
			"properties": {
				"Name": "Chris Simmons",
				"Office": "Soil & Water Conservation District Director",
				"State": "VA",
				"Location": "Loudon, Loudon County"
				},
			"geometry":{
				"type":"Point",
				"coordinates":[-77.565353, 39.11433]
				}
		},
		{
			"type": "Feature",
			"properties": {
				"Name": "Max Mania",
				"Office": "City Council",
				"State": "WA",
				"Location": "Port Angeles Port Angeles, Clallam County"
				},
			"geometry":{
				"type":"Point",
				"coordinates":[-123.431297, 48.118721]
				}
		},
		{
			"type": "Feature",
			"properties": {
				"Name": "Peter Blewett",
				"Office": "School Board",
				"State": "WI",
				"Location": "Milwaukee District 6, Milwaukee County"
				},
			"geometry":{
				"type":"Point",
				"coordinates":[-87.906837, 43.041809]
				}
		},
		{
			"type": "Feature",
			"properties": {
				"Name": "David Conley",
				"Office": "Board of Supervisors",
				"State": "WI",
				"Location": "District 25, Douglas County"
				},
			"geometry":{
				"type":"Point",
				"coordinates":[-89.558891, 43.679722]
				}
		},
		{
			"type": "Feature",
			"properties": {
				"Name": "Greg David",
				"Office": "Board of Supervisors",
				"State": "WI",
				"Location": "Jefferson District 3, Jefferson County"
				},
			"geometry":{
				"type":"Point",
				"coordinates":[-88.807281, 43.004871]
				}
		},
		{
			"type": "Feature",
			"properties": {
				"Name": "Ron Hardy",
				"Office": "Board of Supervisors",
				"State": "WI",
				"Location": "District 17, Winnebago County"
				},
			"geometry":{
				"type":"Point",
				"coordinates":[-90.682861, 44.285789]
				}
		},
		{
			"type": "Feature",
			"properties": {
				"Name": "John Hendrick",
				"Office": "Board of Supervisors",
				"State": "WI",
				"Location": "Dane District 6, Dane County"
				},
			"geometry":{
				"type":"Point",
				"coordinates":[-89.518288, 43.2509]
				}
		},
		{
			"type": "Feature",
			"properties": {
				"Name": "Kathy Kienholz",
				"Office": "County Board",
				"State": "WI",
				"Location": "Polk District 6, Polk County"
				},
			"geometry":{
				"type":"Point",
				"coordinates":[-88.220398, 43.324459]
				}
		},
		{
			"type": "Feature",
			"properties": {
				"Name": "Leland Pan",
				"Office": "Board of Supervisors",
				"State": "WI",
				"Location": "District 5, Dane County"
				},
			"geometry":{
				"type":"Point",
				"coordinates":[-89.518288, 43.2509]
				}
		},
		{
			"type": "Feature",
			"properties": {
				"Name": "Bob Poeschl",
				"Office": "Common Council",
				"State": "WI",
				"Location": "Oshkosh Oshkosh At-Large, Winnebago County"
				},
			"geometry":{
				"type":"Point",
				"coordinates":[-88.544434, 44.02491]
				}
		},
		{
			"type": "Feature",
			"properties": {
				"Name": "Marsha Rummel",
				"Office": "Common Council",
				"State": "WI",
				"Location": "Madison Madison District 6, Dane County"
				},
			"geometry":{
				"type":"Point",
				"coordinates":[-89.386688, 43.072948]
				}
		}
	],
	"type": "FeatureCollection"
}